[{
    "trail_id": 435,
    "trail_name": "九五峰步道",
    "address": "台灣",
    "googleMap": "https://www.google.com/maps/place/?q=place_id:ChIJ0fQKbj6rQjQRiBO2MyIyDJ8",
	"weatherUrl": "https://opendata.cwb.gov.tw/fileapi/v1/opendataapi/F-B0053-031?Authorization=CWB-AF41CC67-3954-445C-B335-9268B25B08F9&downloadType=WEB&format=JSON",
    "weatherRefName":"南港山",
    "location": {
        "longitude": 121.5864575,
        "latitude": 25.0262459
}},
{
    "trail_id": 88,
    "trail_name": "五寮尖登山步道",
    "address": "台灣",
    "googleMap": "https://www.google.com/maps/place/?q=place_id:ChIJj7Jp4xkaaDQRjzdJwTP6TQQ",
	"weatherUrl": "https://opendata.cwb.gov.tw/fileapi/v1/opendataapi/F-B0053-031?Authorization=CWB-AF41CC67-3954-445C-B335-9268B25B08F9&downloadType=WEB&format=JSON",
    "weatherRefName":"金面山",
    "location": {
        "longitude": 121.3656277,
        "latitude": 24.8768431
    
        }},
{
    "trail_id": 299,
    "trail_name": "玉山主峰步道",
    "address": "台灣",
    "googleMap": "https://www.google.com/maps/place/?q=place_id:ChIJbSFIQg4hbzQRpLAN3Li_a3o",
	"weatherUrl": "https://opendata.cwb.gov.tw/fileapi/v1/opendataapi/F-B0053-031?Authorization=CWB-AF41CC67-3954-445C-B335-9268B25B08F9&downloadType=WEB&format=JSON",
    "weatherRefName":"玉山",
    "location": {
        "longitude": 120.957455,
        "latitude": 23.47
        }},

{
    "trail_id": 1236,
    "trail_name": "石門水庫楓林步道",
    "address": "台灣",
    "googleMap": "https://www.google.com/maps/place/?q=place_id:ChIJcY4De909aDQRL9aO5TSdNlc",
	"weatherUrl": "https://opendata.cwb.gov.tw/fileapi/v1/opendataapi/F-B0053-031?Authorization=CWB-AF41CC67-3954-445C-B335-9268B25B08F9&downloadType=WEB&format=JSON",
    "weatherRefName":"石牛山",
    "location": {
        "longitude": 121.2384575,
        "latitude": 24.8136421
        }},

{
    "trail_id": 75,
    "trail_name": "虎山親山步道",
    "address": "台灣",
    "googleMap": "https://www.google.com/maps/place/?q=place_id:ChIJX9SSyAirQjQR9B9f7PKLqJo",
	"weatherUrl": "https://opendata.cwb.gov.tw/fileapi/v1/opendataapi/F-B0053-031?Authorization=CWB-AF41CC67-3954-445C-B335-9268B25B08F9&downloadType=WEB&format=JSON",
    "weatherRefName":"南港山",
    "location": {
        "longitude": 121.587488,
        "latitude": 25.0320167
    }
},

{
    "trail_id": 41,
    "trail_name": "金面山親山步道",
    "address": "台灣",
    "googleMap": "https://www.google.com/maps/place/?q=place_id:ChIJp6s0vUWsQjQRLocNbrRbuqA",
	"weatherUrl": "https://opendata.cwb.gov.tw/fileapi/v1/opendataapi/F-B0053-031?Authorization=CWB-AF41CC67-3954-445C-B335-9268B25B08F9&downloadType=WEB&format=JSON",
    "weatherRefName":"劍潭山",
    "location": {
        "longitude": 121.5679539,
        "latitude": 25.0886654
    }
},

{
    "trail_id": 131,
    "trail_name": "皇帝殿登山步道",
    "address": "台灣",
    "googleMap": "https://www.google.com/maps/place/?q=place_id:ChIJ-RZJUqhVXTQRLshk-UIcL0s",
	"weatherUrl": "https://opendata.cwb.gov.tw/fileapi/v1/opendataapi/F-B0053-031?Authorization=CWB-AF41CC67-3954-445C-B335-9268B25B08F9&downloadType=WEB&format=JSON",
    "weatherRefName":"石尖山",
    "location": {
        "longitude": 121.6762249,
        "latitude": 24.9917929
    }
},

{
    "trail_id": 76,
    "trail_name": "象山親山步道",
    "address": "台灣",
    "googleMap": "https://www.google.com/maps/place/?q=place_id:ChIJJa7chrKrQjQRujG6Hz0IazI",
	"weatherUrl": "https://opendata.cwb.gov.tw/fileapi/v1/opendataapi/F-B0053-031?Authorization=CWB-AF41CC67-3954-445C-B335-9268B25B08F9&downloadType=WEB&format=JSON",
    "weatherRefName":"南港山",
    "location": {
        "longitude": 121.570828,
        "latitude": 25.0273924
    }
}
]